{
"type": "FeatureCollection",
"name": "theater",
"crs": { "type": "name", "properties": { "name": "urn:ogc:def:crs:OGC:1.3:CRS84" } },
"features": [
{ "type": "Feature", "properties": { "NAME": "Birnam Range", "URL": "http:\/\/www.bonzle.com\/c\/a?a=p&p=17853&cmd=sp", "LONG": 153.12705, "LAT": -28.031458, "INFO": "Birnam Range in Queensland is a locality about 50km south of Brisbane. Birnam Range is at an altitude of approximately 182m." }, "geometry": { "type": "Point", "coordinates": [ 153.12705, -28.03146 ] } },
{ "type": "Feature", "properties": { "NAME": "Duck Creek", "URL": "https:\/\/www.whereis.com\/qld\/kerry-4285\/duck-creek-rd", "LONG": 153.1045, "LAT": -28.1943, "INFO": "Lamington National Park is in southeast Queensland, Australia. It's known for its section of the ancient Gondwana Rainforests, home to the rare Albert's lyrebird." }, "geometry": { "type": "Point", "coordinates": [ 153.1045, -28.1943 ] } },
{ "type": "Feature", "properties": { "NAME": "Mt. Barney", "URL": "https:\/\/parks.des.qld.gov.au\/parks\/mount-barney\/", "LONG": 152.6994, "LAT": -28.2814, "INFO": "The distinctive peaks of Mount Barney, Mount Maroon, Mount May, Mount Lindesay, Mount Ernest, Mount Ballow and Mount Clunie make up Mount Barney National Park. " }, "geometry": { "type": "Point", "coordinates": [ 152.6994, -28.2814 ] } },
{ "type": "Feature", "properties": { "NAME": "Mt. Maroon", "URL": "https:\/\/www.aussiebushwalking.com\/qld\/mt-barney\/mt-maroon", "LONG": 152.7285, "LAT": -28.2108, "INFO": "The distinctive peaks of Mount Barney, Mount Maroon, Mount May, Mount Lindesay, Mount Ernest, Mount Ballow and Mount Clunie make up Mount Barney National Park. T" }, "geometry": { "type": "Point", "coordinates": [ 152.7285, -28.2108 ] } },
{ "type": "Feature", "properties": { "NAME": "Knapps Peak Conservation park", "URL": "https:\/\/wetlandinfo.des.qld.gov.au\/wetlands\/facts-maps\/conservation-park-knapp-creek\/", "LONG": 152.749313, "LAT": -28.131326, "INFO": "Knapps Peak is reached by turning off the Boonah-Rathdowney " }, "geometry": { "type": "Point", "coordinates": [ 152.74931, -28.13133 ] } },
{ "type": "Feature", "properties": { "NAME": "Mt. Alford", "URL": "https:\/\/parks.des.qld.gov.au\/parks\/moogerah-peaks\/about.html", "LONG": 152.5396, "LAT": -28.0843, "INFO": "The ancient, volcanic peaks of mounts French, Greville, Moon and Edwards" }, "geometry": { "type": "Point", "coordinates": [ 152.5396, -28.0843 ] } },
{ "type": "Feature", "properties": { "NAME": "kooralbyn", "URL": "https:\/\/queenslandplaces.com.au\/kooralbyn", "LONG": 152.8618, "LAT": -28.0605, "INFO": "Kooralbyn Valley is located amongst the stunning countryside of the Gold Coast Hinterland region" }, "geometry": { "type": "Point", "coordinates": [ 152.8618, -28.0605 ] } }
]
}
